[
    {
        "id": 1,
        "name": "Acme Cafe",
        "category": "Cafe",
        "desc":"coffee",
        "address": "123 Main St, Anytown USA",
        "phone": "(123) 456-7890",
        "url": "www.instagram.com/kookpiyasak/?hl=en",
        "hours": "Mon-Fri: 7am-9pm",
        "image": "/kfc.png",
        "latitude": "37.7749",
        "longitude": "-122.4194"
    },
    {
        "id": 2,
        "name": "Burger King",
        "category": "Fast Food",
        "desc":"burger",
        "address": "456 Elm St, Anytown USA",
        "phone": "(123) 456-7890",
        "url": "www.instagram.com/kookpiyasak/?hl=en",
        "hours": "Mon-Fri: 7am-9pm",
        "image": "/kfc.png",
        "latitude": "37.7749",
        "longitude": "-122.4194"
    },
    {
        "id": 3,
        "name": "Cafe Rio",
        "category": "Mexican",
        "desc":"coffee",
        "address": "789 Oak St, Anytown USA",
        "phone": "(123) 456-7890",
        "url": "www.instagram.com/kookpiyasak/?hl=en",
        "hours": "Mon-Fri: 7am-9pm",
        "image": "/kfc.png",
        "latitude": "37.7749",
        "longitude": "-122.4194"
    }
]
